{"type":"FeatureCollection","features":[{"type":"Feature","geometry":{"coordinates":[-76.942076,38.912485],"type":"Point"},"properties":{"name":"mac"},"id":"E2OTY"},{"type":"Feature","geometry":{"coordinates":[-76.941877,38.913109],"type":"Point"},"properties":{"name":"2030-2150"},"id":"k2NzI"},{"type":"Feature","geometry":{"coordinates":[-76.942954,38.912327],"type":"Point"},"properties":{"name":"lotus"},"id":"A2OTQ"},{"type":"Feature","geometry":{"coordinates":[-76.943534,38.913195],"type":"Point"},"properties":{"name":"helen fowler"},"id":"UyMjE"},{"type":"Feature","geometry":{"coordinates":[-76.944643,38.913399],"type":"Point"},"properties":{"name":"water lily"},"id":"A1MTA"},{"type":"Feature","geometry":{"coordinates":[-76.944148,38.9125],"type":"Point"},"properties":{"name":"volunteers"},"id":"E2Mjc"},{"type":"Feature","geometry":{"coordinates":[-76.949213,38.910475],"type":"Point"},"properties":{"name":"1986"},"id":"QwMDk"},{"type":"Feature","geometry":{"coordinates":[-76.947519,38.911934],"type":"Point"},"properties":{"name":"cattail"},"id":"AxOTQ"},{"type":"Feature","geometry":{"coordinates":[-76.949342,38.912096],"type":"Point"},"properties":{"name":"2200 bce"},"id":"QxNzU"}],"_umap_options":{"displayOnLoad":true,"inCaption":true,"browsable":true,"editMode":"advanced","id":"4d2ea1be-c1c9-4d05-89cf-a61d2391c16e","name":"Experience Anchor Locations","rank":2,"remoteData":{},"description":"These Markers show where the center of the experience will be anchored. ","permissions":{"edit_status":0}}}